<?xml version="1.0" encoding="UTF-8"?>
<root>
  <lines>
    <element>
      <hex_color>FFCD1C</hex_color>
      <id>8</id>
      <name>Калининская</name>
      <stations>
        <element>
          <id>8.189</id>
          <lat>55.745113</lat>
          <lng>37.86405</lng>
          <name>Новокосино</name>
          <order>0</order>
        </element>
        <element>
          <id>8.88</id>
          <lat>55.752235</lat>
          <lng>37.814587</lng>
          <name>Новогиреево</name>
          <order>1</order>
        </element>
        <element>
          <id>8.107</id>
          <lat>55.75098</lat>
          <lng>37.78422</lng>
          <name>Перово</name>
          <order>2</order>
        </element>
      </stations>
    </element>
    <element>
      <hex_color>4FB04F</hex_color>
      <id>2</id>
      <name>Замоскворецкая</name>
      <stations>
        <element>
          <id>2.558</id>
          <lat>55.8777</lat>
          <lng>37.4877</lng>
          <name>Ховрино</name>
          <order>0</order>
        </element>
        <element>
          <id>2.674</id>
          <lat>55.8651</lat>
          <lng>37.4764</lng>
          <name>Беломорская</name>
          <order>1</order>
        </element>
        <element>
          <id>2.125</id>
          <lat>55.854153</lat>
          <lng>37.476727</lng>
          <name>Речной вокзал</name>
          <order>2</order>
        </element>
        <element>
          <id>2.29</id>
          <lat>55.838978</lat>
          <lng>37.487514</lng>
          <name>Водный стадион</name>
          <order>3</order>
        </element>
      </stations>
    </element>
  </lines>
</root>